Lat,Long,Venue_Type,Venue_Name,Created_On
35.66191632,139.7350967,shopping,GCゆきざき (GC Yukizaki),1580182467
35.66895489,139.761436,shopping,GCゆきざき (GC Yukizaki),1580182719
35.66335459,139.7329509,shopping,GCゆきざき Gem Castle (GC Yukizaki),1580182929
35.66377299,139.7314435,shopping,GCゆきざき (GC Yukizaki),1580183013
49.59568425,17.2501123,shopping,Marton's Work,1579299302
41.34153699,-73.90395641,sports,Gear Up Sports,1580512054
46.06041228,14.50686157,food,Žito trgovina,1582540407
44.29054261,15.12107134,lodging,Apartments VIRIĆ,1582546911
18.78568635,98.98180604,food,Boo Bar in Old City,1579342514
46.40337459,7.777615276,lodging,Alpine-apartment.ch,1579361207
49.20278359,16.62275434,default,DENKER US CARS,1579469497
44.49124379,11.32012904,shopping,Foto Impressioni,1580544933
45.80774313,9.084877968,shopping,La Borsetta Como,1580928664
44.48802158,11.33507431,lodging,B&B Central Avenue,1581435850
46.03605146,14.47815657,default,Biljardnica Direkt Bar,1582031980
45.77027705,18.87365341,attraction,Liberland,1578455787
46.02234913,14.52408135,cafe,Bar Pr'Florjan,1582033267
46.07562722,14.48318839,cafe,Kavarnica Golica,1582033502
46.07546348,14.48332787,cafe,Breza caffe no.2,1582033657
46.05889726,14.49713051,cafe,Mini Cafe Golf,1582034857
46.05117632,14.43900168,sports,Škulj Tenis Center,1582037539
46.0512061,14.43913043,sports,Indoor Golf Ljubljana,1582032482
46.05034608,14.51449513,cafe,Bar Mesto,1582038870
46.07944146,14.51160908,cafe,Kava Bar Komiža,1582039291
46.03978279,14.47129548,cafe,Kavarna Square 118,1582040362
46.07176061,14.48695958,cafe,Rendez Vous Bar,1582040595
46.06344221,14.49410498,cafe,Bolero Bar,1582041462
46.13776836,14.59836245,default,A1 Domžale,1582041718
4.35936107,-75.73855519,food,La Barra,1582074892
46.21004914,13.21299613,default,Pizzeria Aria 5,1582237751
46.86426611,15.21652579,sports,Divers Destination KG,1578080347
37.39578784,-6.000975966,lodging,APARTMENTS SEVILLE CENTER,1578162579
37.39449224,-5.991953015,lodging,DESIGN APARTMENT SEVILLE CENTER,1578162736
45.28345498,8.758522868,sports,Centro Ippico ASD Stella,1578162917
43.08851041,12.45836735,shopping,Filippo Angeloni Consulente Finanziario,1578579652
39.59059276,-0.4586952925,default,Maxcolchon,1578584976
39.67344058,-0.2485924959,default,Maxcolchon,1578590548
45.54961016,-73.67165565,atm,Bitcoin ATM @ Dépanneur Le Service,1578659472
55.70454354,37.42374659,transport,Parustrans International Movers,1578700145
-27.49188385,-58.92713428,food,GRAIN Trader Argentina,1578789087
28.67859188,-13.93785238,shopping,Gusty,1578789442
55.70521456,37.426579,default,Abroadly-expert,1578734263
41.27089617,31.43487811,shopping,Caner Akvaryum & Petshop,1578814347
29.72082765,-95.30900896,default,BereshkaWeb,1578763787
26.21856622,127.6878047,trezor retailer,PORTAANDGATE,1578819804
10.99325585,-74.80584919,default,brothertattoos,1578858209
11.00385081,-74.82576728,default,SEXOFANTASIAS,1578858677
9.215166948,-66.00011945,food,EL LLANERITO,1578939667
45.45174311,-92.45400131,default,mybookillustrator.com,1578952111
42.93404771,-72.27854848,default,KD Prestige Detailing,1579051403
44.29806832,15.08268356,lodging,Apartments Resort Jadro Mira,1579051972
44.30167724,15.06156921,lodging,VILLA MIRA,1579052122
7.739045844,98.76982457,atm,Exchange,1579058876
44.30276755,15.09813309,lodging,Apartments PLEŠA,1579105818
44.88652599,37.32467651,lodging,Zeleniy mir,1579112021
10.06824835,-69.28510666,default,Cripto Tesch,1579195308
49.73886538,13.38921726,shopping,pvatelier.cz,1579242682
44.48180244,11.36725008,lodging,B&BO la Frasca,1579273458
-34.60303796,-58.37520003,atm,Transfer Express,1579278691
42.93143979,-72.2761023,food,EuPHOria,1579498348
48.27496039,13.88853192,default,Zwei Fach,1579617131
48.29008918,14.29793358,shopping,Goldunion,1579617271
48.04147626,14.42591786,sports,MANDU Steyr,1579618093
47.98530447,14.12093997,default,Elektro Staudinger,1579618778
48.30161661,14.29195225,default,Xu-Wok & More,1579619053
48.29859761,14.29002106,default,Textilreinigung Pilz,1579619395
-33.41958135,-70.60901821,shopping,SMARTCTL,1579642171
40.08480277,-75.25939465,default,"Team Economics, LLC",1579714154
40.08715858,-82.98439801,atm,Bitcoin ATM,1579209809
45.81326216,15.99782109,food,Jellyfish in Space,1579775539
42.93109023,-72.28055477,default,Pure Bliss Cleaning Service,1579662570
41.36400671,-82.10383415,atm,Bitcoin ATM,1579725435
37.9329183,-77.47756541,atm,Bitcoin ATM,1579993187
36.80708566,-77.46315122,atm,Bitcoin ATM,1579993601
55.35779476,86.16631866,default,"Green Gorillaz | Fitness club ""Leningradsky""",1579860541
55.40193159,86.01482749,default,"Green Gorillaz | Fitness club ""Kirovsky""",1579860669
-19.90799913,-43.94433618,default,RF Engenharia,1579812211
55.74825966,37.53720939,food,M-CITY resto grill bar,1579782380
55.79410425,37.59196401,shopping,"ZEONDIGITAL | Shop ""Sound Arena""",1579855805
55.76356428,37.6544112,cafe,Tsifra | Cafeteria,1579856026
55.76150892,37.55155921,shopping,DomDomych.ru | Retail sale of goods for the interior of your home,1579856199
55.69913869,37.35892296,shopping,Gift LAB SKOLKOVO | Souvenir shop,1579856845
55.74649638,37.68264413,default,Flagman | Travel agency,1579858441
55.77731219,37.50428796,shopping,AGENTORY | Real estate agency,1579858589
55.73296414,37.61937082,default,APARTMENT HOTEL | Management Company,1579859581
55.83538547,37.93593049,default,ZOOCLINIC & ZOOMARKET PETGROUP | Veterinary services and pet products,1579859899
55.32953501,86.11461639,default,"Green Gorillaz | Fitness club ""FPK""",1579860154
55.40347893,86.11931562,default,"Green Gorillaz | Fitness club ""Raduga""",1579860421
42.93110987,-72.28070498,attraction,Free Talk Live & LRN.FM,1579995868
38.75707015,-9.303917885,shopping,Zumub,1580115799
44.55128897,38.05438757,shopping,"Roberto Bravo at the ""Grand Hotel Kempinski Gelendzhik""",1580123940
43.68385663,40.25694251,shopping,"Roberto Bravo at the ""Sochi Hotel Marriott Krasnaya Polyana"" | Jewelry",1580124190
43.58460705,39.71697628,shopping,"Roberto Bravo in the TG ""Grand Marina"" | Jewelry",1580124295
43.60631284,39.73237753,shopping,"Roberto Bravo in ""MoreMall"" shopping center | Jewelry",1580124388
43.57068667,39.73215759,shopping,"Roberto Bravo at the ""Grand Hotel Zhemchuzhina"" | Jewelry",1580125167
39.17993194,-77.26604104,atm,Bitcoin ATM,1580166364
50.1420875,14.09891903,shopping,Žaluzie a sítě do oken,1580398421
-32.90887456,-68.82547259,grocery,El Mercadito,1580694288
-32.86481869,-68.94600078,lodging,Tangram Cabañas,1580694466
-32.85392235,-68.82724285,default,El Taller de Pianos,1580694583
45.44171331,9.287272096,food,Bottega Verace,1580713619
50.16727782,19.39807892,default,"BlueSun - Zasilanie Awaryjne, Usługi Elektryczne",1580816106
41.44799402,-82.16567516,atm,Bitcoin ATM,1580396903
44.48961357,11.31511331,shopping,"Copisteria ""Il Copione""",1580825991
44.50226378,11.33241892,atm,Bitshop,1580826702
27.33634257,-82.53165185,atm,Bitcoin Center,1580829907
49.2073364,16.48464203,default,Petr Krzok,1581067101
39.12456716,-84.34716403,atm,Bitcoin ATM,1579209680
-32.89249559,-68.85440638,food,The Sixth Dagger ,1581105251
-32.88538506,-68.84145856,food,Parrilla del Mercado,1581111683
44.43997729,8.96784246,shopping,Centroinfissi EGI,1581188370
48.1893617,16.36446297,default,Psychologische Praxis | Mag. Daniel Prattinger,1581215436
35.96244609,-115.0968933,default,Drone2Address,1581348554
36.1212369,-115.2788544,default,Drone2Address,1581348578
36.25147202,-115.2088165,default,Drone2Address,1581348601
35.9904642,-115.1854599,default,Heart of Gold Child Care,1581348671
36.02628197,-115.088675,default,Colocation Vegas,1581348760
36.02688935,-115.0890827,default,702Ring,1581348797
25.75815531,-80.21289825,default,Ring305,1581348882
36.06589081,-115.2020359,default,702Ring,1581349650
35.98897976,-115.1890969,default,Drone2Address,1581348507
-34.55566396,-58.41533661,atm,BlockLabs P2P BTC to ARS,1581386980
-34.81260535,-58.53906155,atm,BlockLabs P2P BTC to ARS,1581387252
-34.66583773,-58.64275575,atm,BlockLabs P2P BTC to ARS,1581387449
-17.78885791,-63.19588846,shopping,David A. Justiniano,1581468722
10.47662911,-84.96414185,lodging,Hotel Cielo Azul Resort,1581473830
48.15399776,14.01073873,default,PT – Built By Experience,1581497974
44.3081881,15.080055,lodging,Aparmán Verne,1581530750
44.30131636,15.09296179,lodging,Apartman BARBA,1581531031
48.85487515,2.304232121,default,Nicolas Mildner,1581543077
46.05480983,14.50513422,shopping,Zlatarstvo Kodre,1581675958
37.0994522,27.30793476,shopping,DEEP PERDE,1581676634
4.829751107,-75.67335069,default,DogeLino,1581685237
20.58811681,-100.3750956,shopping,Fama Sport,1581727325
20.01645495,-75.83085537,transport,Mr. Eridanys,1581869000
20.02072353,-75.82510769,default,Fernando Lainati Mora,1581893572
-37.14828528,-56.88095212,lodging,Cabañas El Jardín,1581946699
47.16717476,8.514876366,food,Löwen Brasserie,1581948948
47.16716747,8.514989018,lodging,Hotel Löwen,1581949253
-16.68383258,-49.26763594,default,Nexus Class,1581964597
46.18043955,8.998253345,shopping,Mediasat Sagl,1581971677
50.0811192,14.42445832,default,Flower shop KvetinySandra,1581973138
44.29238189,15.11988044,lodging,Apartments Ivuša,1579051789
46.02337348,14.41772103,lodging,Hotel Pok,1582017266
46.02334368,14.4178766,food,Restavracija Kevder,1582017473
46.04844357,14.49967325,cafe,Living Room Lounge,1582017696
46.05247562,14.50503767,default,Elegance Showroom,1582018250
46.05224108,14.50844407,shopping,Saloon Concept,1582018744
46.08213918,14.50648069,default,Nova ključavnica,1582019053
46.07323063,14.50387359,default,The Coffee,1582020273
46.03609987,14.47817266,default,Biljard klub Direkt,1582031814
44.29031989,15.1202774,lodging,Apartman VLADEK,1581982211
37.8750721,-122.260379,default,Metz Construction,1581809469
46.20869414,6.131942868,atm,Le Kiosque de l'ile verte,1582136407
46.21063939,6.14566505,atm,La Miroiterie Café ,1582136599
-29.36333093,-50.81353784,atm,Bitcoin - câmbio - exchange,1582136948
33.49226937,-88.79059196,default,Redeemer Church,1582144045
-37.87265549,145.0251608,default,Healing Delight,1582268558
46.08708404,14.47852671,cafe,Fani bar,1582290849
45.59446175,10.15372753,cafe,Caffè Danesi,1582291353
46.40574408,14.15445685,cafe,"Zavrh bar, V objemu narave",1582292257
46.04797818,14.54445004,food,Sarajevska čevabdžinica Deset v pol,1582293600
46.06177465,14.57323015,cafe,Kava bar Petrol,1582293745
46.02124654,14.52299774,food,Gostilna in pizzeria KUBUS,1582294011
-5.865909275,-35.20172417,default,Leal e Lima Sociedade de Advogados,1582321495
46.05667118,14.50586915,food,Žito trgovina,1582551322
46.06510599,14.5113194,food,Žito trgovina,1582551483
46.05499225,14.50881422,food,Žito trgovina,1582551780
46.0580597,14.51148033,food,Žito trgovina,1582552020
46.05061414,14.50929165,food,Žito Kruharna,1582552926
46.05397221,14.51277852,food,Žito trgovina,1582553127
46.05516349,14.50848162,food,Žito trgovina,1582553289
46.05115026,14.50719416,food,Žito trgovina,1582553552
46.04146963,14.47512031,food,Žito trgovina,1582556263
46.07379257,14.47453022,food,Žito trgovina,1582559271
46.05772839,14.50967789,food,Žito trgovina,1582559393
46.06440251,14.54421401,food,Žito trgovina,1582559522
42.34030291,-83.1276387,grocery,Livernois-Mcgraw Market,1582563066
4.697654255,-74.03051376,lodging,Hostal Casa Andina Usaquen,1582593045
50.13466432,14.17648315,default,EDGAR GONZALEZ ASESOR,1582578076
5.084323847,-73.78861606,lodging,Hostal Casa Andina Suesca,1582595839
50.82962509,4.048043489,default,Veronove Tegels,1582722893
3.368971467,-76.51484013,shopping,ReGia Makeup ,1582771425
50.10255159,14.46798563,transport,Iva Testuje,1582797374
51.39698332,12.39884377,attraction,CCC,1582807921
41.70423867,-83.52696061,atm,Bitcoin ATM,1582568749
47.43265611,8.556981683,shopping,COIN.HOST,1582814361
4.807824043,-75.69157362,atm,BancaBIT,1582831335
-17.74582554,-63.1918627,shopping,Widen Montero,1582831372
50.41489999,30.52226186,atm,Colipay,1582847874
45.55704409,18.70507658,cafe,Campus Caffe,1582889979
4.698575566,-74.03131652,default,Crisol (Elizabeth Gómez y David Palacio),1582899763
39.92924588,-77.63810098,atm,Bitcoin ATM,1582916508
4.616673042,-74.19792652,shopping,BITCOIN-TRAXALT,1582914988
6.229235122,-75.57080984,atm,Genesis Block,1582941084
45.81036062,15.97420156,attraction,Museum of Hangovers,1582997640
33.89663713,-117.9945374,default,Tandy Consulting Inc,1583037774
49.18825641,-123.9502523,default,Ripsen Marine,1583054136
50.08048052,14.44864154,default,PHP Programming Mentoring,1583152192
41.96819905,-87.80741221,default,American Speedy Printing,1583157255
42.35202676,-3.660678864,default,pepeton,1583169950
-27.28609007,-48.89581203,food,CoguVale,1583173969
46.42374793,15.88532925,default,Tomas Sport Ptuj,1583228669
46.40301414,15.5337131,lodging,Panorama Glamping Visole,1583230263
46.1365008,14.4133383,cafe,Parkplac Drive in,1583231323
46.36098241,15.10720968,default,ILON center masaž in terapij,1583231844
46.35940161,15.10875463,default,Šola vožnje RELAX Velenje,1583232096
46.33620636,14.95862067,default,Šola vožnje RELAX Mozirje,1583232767
46.09963209,14.53668237,default,MGS PLUS,1583239507
46.06389258,14.54567313,default,"Kalček Ljubljana, BTC",1583239905
46.22524876,14.61165011,cafe,Kavarna Veronika,1583240415
46.22412054,14.61077034,food,Pizzeria Napoli,1583240587
45.94318988,13.6420691,default,AcuModerna,1583240847
45.53972177,13.66428852,default,Navtik. AL,1583241149
46.05040565,14.52680111,default,List biro oprema d.o.o.,1583242448
46.11016534,14.60952044,default,Lazy Koala,1583243214
46.02030038,14.53950405,default,Eset Online store,1583243682
39.68570666,-84.22146499,atm,Bitcoin ATM,1583276295
10.3823191,-75.47966838,food,Ay Jue’ Pollo,1583291064
55.762683,37.59230196,food,800°С Contemporary Steak | Meat restaurant,1583315944
55.75021609,37.55966485,food,Village restaurant Arkadiya Novikovа | Cheese factory at the Badayevsky plant,1583315761
55.74706704,37.53650665,cafe,FORNETTO | Cafe pizzeria,1583316153
55.66672112,37.62042224,cafe,Coffee Industry | Catering company,1583316398
37.18653586,126.6514421,cafe,Romance Yacht,1583379466
47.17262319,8.513261676,food,Kurioz Bar & Kitchen,1583417098
50.0805155,14.4492276,food,U Sadu,1578930109
46.0931109,11.1121903,default,La selleria on line,1582221225
43.7198484,10.3972951,atm,?,1580855888
32.0641293,34.7735345,atm,רובוקוין,1583428892
50.0884875,14.3961675,cafe,U zelených kamen,1578929305
46.0823409,14.5137728,atm,Bitnik 2-way bitcoin ATM,1583429046
45.5399021,13.7351245,atm,Bitnik 1-way bitcoin ATM,1583429085
41.2126346,9.3880341,lodging,Ma & Ma Grand Hotel Resort,1582986673
61.4975548,23.7771771,atm,Bittimaatti Two-Way,1583429144
33.7445484,-84.3686163,atm,Athena Bitcoin ATM,1583429145
33.7727707,-84.3785388,atm,Athena Bitcoin ATM,1583429145
43.4677367,-80.5233263,atm,Bitcoin ATM,1583429155
23.7304245,90.4120602,default,বাকাউল মানি এক্সচেঞ্জ,1583429156
47.1390768,7.2453205,default,Zahnarztpraxis Dr. Matthias Nötzel ,1582559517
44.0795252,10.0996256,default,Le profumerie Braccini,1580456875
48.204798,16.3703636,atm,?,1583429226
48.4269856,-123.3675538,atm,Bitcoin ATM,1583429232
48.4242489,-123.3631831,atm,Bitcoin ATM,1583429233
45.8836233,8.5408137,shopping,Gioielleri Paulon,1578338791
49.1827613,16.6270176,atm,?,1583429262
50.0770759,8.2370224,shopping,Meyni Textil Stickerei Schneiderei Textildruck,1582223184
45.4274276,-75.6902342,atm,?,1583429286
45.4269373,-75.6896924,atm,?,1583429287
47.2605377,11.3827153,atm,?,1583429294
47.2701621,11.3910884,atm,?,1583429295
47.2557425,11.326362,atm,?,1583429295
48.7196925,21.2611817,atm,Bitcoin ATM,1583429315
62.2434448,25.748279,atm,Bittimaatti Two-Way,1583429370
62.8643396,27.613253,atm,Bittimaatti Two-Way,1583429371
31.7670985,35.2255151,atm,כספומט ביטקוין,1583429386
43.7198492,10.3973451,cafe,Pasticceria DolcePisa,1580853413
40.5110587,-88.9819592,atm,Cryptocurrency Atm,1583429469
40.7883618,-73.9472413,atm,Bitcoin ATM,1583429470
40.0768264,-75.1595793,atm,Athena Bitcoin ATM,1583429475
33.7571288,-84.165897,atm,Athena Bitcoin ATM,1583429475
39.9530312,-75.2580463,atm,Athena Bitcoin ATM,1583429476
33.7239937,-84.4998096,atm,Athena Bitcoin ATM,1583429476
33.6817963,-84.4139692,atm,Athena Bitcoin Inc.,1583429477
38.6361712,-90.2469195,atm,Athena Bitcoin ATM,1583429477
27.9368172,-82.3690265,atm,Athena Bitcoin ATM,1583429478
25.9267495,-80.1445471,atm,Athena Bitcoin ATM,1583429478
39.9868967,-75.1563595,atm,Athena Bitcoin ATM,1583429478
27.9726134,-82.4510169,atm,Athena Bitcoin ATM,1583429478
38.5671016,-90.4947265,atm,Athena Bitcoin ATM,1583429479
33.6168738,-84.4721798,atm,Athena Bitcoin ATM,1583429480
33.8218526,-84.3669544,atm,Athena Bitcoin ATM,1583429481
40.0387799,-75.0344563,atm,Athena Bitcoin ATM,1583429483
29.7341298,-95.441206,atm,Athena Bitcoin ATM,1583429483
33.8890644,-84.4783171,atm,Athena Bitcoin ATM,1583429483
30.1793946,-95.537792,atm,Athena Bitcoin ATM,1583429484
33.8586264,-84.3419866,atm,Athena Bitcoin ATM,1583429486
27.9424967,-82.7468779,atm,Athena Bitcoin ATM,1583429487
26.0112539,-80.1455778,atm,Athena Bitcoin ATM,1583429488
39.9537032,-83.1091185,atm,Athena Bitcoin ATM,1583429489
26.1657401,-80.1577191,atm,Athena Bitcoin ATM,1583429489
39.8199515,-84.0282587,atm,Athena Bitcoin ATM,1583429489
25.7689874,-80.3694869,atm,Athena Bitcoin ATM,1583429490
25.8404726,-80.2823652,atm,Athena Bitcoin ATM,1583429490
38.5837455,-90.2661623,atm,Athena Bitcoin ATM,1583429490
28.0548704,-82.4453018,atm,Athena Bitcoin ATM,1583429491
33.9428527,-84.2715876,atm,Athena Bitcoin ATM,1583429492
25.8100172,-80.1996652,atm,Athena Bitcoin ATM,1583429493
25.5206548,-80.4784996,atm,Athena Bitcoin ATM,1583429493
33.9516226,-84.1023361,atm,Athena Bitcoin ATM,1583429495
38.6346679,-90.3450096,atm,Athena Bitcoin Inc.,1583429495
29.9539969,-95.5414147,atm,Athena Bitcoin Inc.,1583429496
32.7464069,-97.2326456,atm,Athena Bitcoin ATM,1583429497
40.8041286,-73.9377662,atm,Bitcoin ATM,1583429498
55.7302536,37.6193128,atm,?,1583429517
5.852605,95.2709064,default,Monster Divers,1583066204
37.3997448,-79.1731064,default,?,1583429543
45.4786337,-75.5147826,atm,Honey Badger Bitcoin ATM,1583429546
51.4630942,-2.5897305,atm,?,1583429561
41.79343,-87.6641824,atm,Amstar Gas Station Bitcoin ATM,1583429570
41.8828161,-87.6860768,atm,West Haven Coin Laundry Bitcoin ATM,1583429570
36.0357445,-115.171794,atm,BIG V MARKET Bitcoin ATM,1583429573
39.8079105,-86.1730548,atm,Boost Mobile Bitcoin ATM,1583429573
43.0601487,-87.9265711,atm,BP Gas Station Bitcoin ATM,1583429574
43.1198021,-88.0254172,atm,?,1583429574
39.7923018,-86.1170608,atm,Citgo Gas Station Bitcoin ATM,1583429575
39.7599625,-86.0833512,atm,Citgo Gas Station Bitcoin ATM,1583429575
41.4229781,-81.7103042,atm,Convenient Food Mart Bitcoin ATM,1583429575
42.1992327,-83.221896,atm,?,1583429575
41.78023,-87.6055732,atm,Currency Exchange Bitcoin ATM,1583429576
41.7515141,-87.6048854,atm,Currency Exchange (Cottage Grove) Bitcoin ATM,1583429576
39.7741734,-86.1287007,atm,Dairy Barn Bitcoin ATM,1583429576
40.0478206,-75.1422956,atm,Exxon North Philli Bitcoin ATM,1583429576
39.8288881,-86.2708587,atm,Gills Marathon Bitcoin ATM,1583429577
41.6999422,-87.6423445,atm,Golo Bitcoin ATM,1583429577
41.5565445,-81.5498859,atm,Green Light Beverage Liquor Store Bitcoin ATM,1583429577
41.7702985,-87.6831424,atm,King Food and Liquor Bitcoin ATM,1583429577
41.8703937,-87.8528673,atm,Marathon Express Gas Station Bitcoin ATM,1583429577
41.4566457,-81.637496,atm,Marathon Gas Station Bitcoin ATM,1583429577
39.8536353,-86.2395868,atm,Marathon Gas Station Bitcoin ATM,1583429578
29.7421775,-95.3591985,atm,Mobil Gas Bitcoin ATM,1583429579
33.9922367,-117.9152267,atm,OLE PAY Bitcoin ATM,1583429580
29.8021136,-95.4305089,atm,Speedy Mart Bitcoin ATM,1583429580
41.8665466,-87.7107547,atm,Star Gyro Bitcoin ATM,1583429581
29.7434512,-95.2968843,atm,Super Amigo Food Mart Bitcoin ATM,1583429581
41.8957836,-87.6377335,atm,The Galleria Bitcoin ATM,1583429582
40.0469784,-75.0696256,atm,Tyson Citgo Gas Station Bitcoin ATM,1583429582
41.7583088,-87.6316161,atm,Vincennes Currency Exchange Bitcoin ATM,1583429582
48.7229714,21.2675836,atm,Bitcoin ATM,1583429601
35.6601548,139.6988784,default,Sakura Currency Exchange,1583429601
33.747835,-84.3488765,atm,Athena Bitcoin Inc.,1583429618
25.8272946,-80.1923049,atm,Athena Bitcoin Inc.,1583429619
45.492358,-73.5577711,atm,?,1583429620
45.7122539,-73.5127024,atm,?,1583429621
45.5060358,-73.5618145,atm,?,1583429622
45.51415,-73.5727312,atm,?,1583429622
45.4326664,-73.8479137,atm,?,1583429623
40.1895171,44.5159277,atm,?,1583429624
37.9638095,23.7231194,atm,?,1583429626
33.6837431,-84.061908,atm,Athena Bitcoin ATM,1583429626
33.976368,-83.9446466,atm,Athena Bitcoin ATM,1583429627
33.7729039,-84.4169947,atm,Athena Bitcoin ATM,1583429628
27.9663985,-82.4145783,atm,Athena Bitcoin ATM,1583429628
33.7971686,-84.3693286,atm,Athena Bitcoin ATM,1583429629
40.4207493,-3.709961,atm,Vatcointech,1583429634
37.7847346,-122.4033544,default,?,1583429641
37.7847346,-122.4033544,default,?,1583429642
43.8253496,-79.5351246,atm,?,1583429646
43.4614754,-79.6870011,atm,?,1583429649
37.7279673,-122.4771196,default,?,1583429653
52.3800847,16.984005,atm,?,1583429653
45.532238,10.164191,atm,Walledo Kiosk,1583429655
45.86486,13.42877,atm,Walledo Kiosk,1583429655
59.4344085,24.7586328,atm,AIC ESTONIA OÜ,1583429656
41.3593986,2.1362346,default,BitBase,1583429658
53.5319863,8.1285822,default,Kiefer Networks,1582611077
48.7618023,8.2416069,atm,?,1583429678
51.8451125,5.8602912,atm,?,1583429682
51.524465,-0.080821,atm,?,1583429693
38.8100377,-77.2555552,atm,?,1583429695
48.7261977,21.2573966,atm,Bitcoin ATM,1583429698
48.6943698,21.2393133,atm,?,1583429699
-12.0683148,-77.0137461,shopping,Buzos Deportivos,1580769746
-12.0682982,-77.0137345,shopping,Camisetas de Futbol,1580769746
41.0140874,28.9677702,shopping,Rdekoavm Sanal Mağazacılık,1577900066
48.6929792,18.6001347,food,Impress,1577967633
45.282936,8.758825,default,Centro Ippico ASD Stella,1578236837
47.3392654,9.5237136,shopping,FixThis.ch,1578582421
53.5347825,-2.283318,default,North Manchester Joinery,1578769687
48.1404551,17.1203879,atm,Cryptobankomat,1578842275
53.5347876,-2.2832853,shopping,North Manchester Joinery,1579041474
45.5102551,-122.655978,shopping,Free Geek,1579137756
40.8311253,14.2493561,food,Pizzeria Pizze d'Autore del Maestro Pizzaziolo Gigi Sorbillo,1579682472
40.826359,14.2027183,shopping,Cartolibreria Giorgio Lieto di Lieto Gianfranco,1579682704
41.1671736,-8.6342946,shopping,Mr. Boss Barber Shop and Miss Boss Hair Saloon,1580559719
41.1672131,-8.6345468,food,Churrasqueira Central de Francos,1580598297
-12.068292,-77.0137128,shopping,Polos Deportivos,1580769746
32.9281979,35.3194764,grocery,?,1580996540
43.7198112,10.3973581,atm,?,1581007011
27.7682535,-15.5485549,cafe,heladería cacao,1581517071
45.453154,9.20102,atm,CryptoLocalATM c/o Empire Coffee,1581867980
59.4526316,24.8752353,shopping,GIG,1583184565
41.8582012,-87.660269,atm,Blue1647,1583429759
-23.7270691,-46.6991679,attraction,Praça Vila Rubi,1578864423
55.1691041,-118.793835,lodging,Sandman Hotel Grande Prairie,1580155546
45.37246099,14.34856296,food,Oštarija Fortica,1583752470
46.05322392,14.50686157,default,Gold store,1583752620
46.04970199,14.516716,cafe,Fajn food,1583752714
27.752489,-82.6469457,atm,Athena Bitcoin ATM,1583429829
46.04967965,14.51678574,food,Fajn Fuud Pizza,1583752779
53.5352837,-2.2834188,default,?,1579041474
53.5348199,-2.2833236,shopping,North Manchester Joinery,1578094446
43.630993,-116.203639,food,Hyde Park Sno Shack,1580546683
59.2759625,28.9081195,default,Малиновка-1,1583429934
46.5014684,11.2526083,sports,Golf Club Eppan,1583429934
11.5035563,-85.5513976,lodging,"Xalli, Ometepe Beach Hotel - Nicaragua",1583429935
40.4270979,-3.6873459,lodging,Petit Palace Embassy Serrano,1583429935
4.8073801,-75.7229541,default,Metroparque del Café,1583429936
-23.8323364,-46.710286,attraction,EMEF Ulysses da Sylveira Guimaraes,1583429936
-23.7236365,-46.7060656,attraction,Ambulatório de Especialidades Jardim Cliper,1583429937
-23.7121594,-46.6956663,attraction,48º DP - Cidade Dutra - Polícia Civil - Distrito Policial,1583429938
-23.7417606,-46.7090449,attraction,50º Batalhão de Polícia Militar Metropolitano PMESP,1583429938
39.687854,16.2874129,nightlife,bar hotel san francesco,1578383527
37.4731917,-77.4440229,default,Superior Outlet And Pawn Shop,1578638871
53.5347483,-2.2833128,default,North Manchester Joinery,1579041474
44.0391376,-123.0690895,grocery,Doctors Office w/ Candy,1579041527
36.1449388,-115.195488,lodging,"The Clyde, a Bed & Bay Residence Inn",1579232681
36.1392643,-115.2322698,lodging,"The Escondido, a Bed & Bay Residence Inn",1579232863
36.1448939,-115.1953625,lodging,"The Bonnie, a Bed & Bay Residence Inn",1579742691
-34.4764094,19.89385,default,Xtreme Pro Paintball Guns,1579869279
50.29748202,15.5905652,default,test vvenue,1583370234
48.41456165,18.04832697,default,tets,1583428394
46.4078349,11.2384105,default,Cosmo Life S.r.l.,1582635343
51.5880451,4.5286544,food,Brasserie Tivoli,1582271816
46.04969455,14.51664627,food,Fajn Fuud Burger,1583752846
46.24183921,14.35679734,default,Gold store ,1583752906
38.8211373,-90.5170204,atm,GeneralBytes two-way bitcoin kiosk,1583429067
46.56122097,15.62659264,transport,TaxiPlus,1583752994
46.06493105,14.54509377,shopping,Gold store ,1583749458
47.49808972,19.05541599,nightlife,Brewdog Brewery,1583770184
18.7857246,98.9818331,nightlife,Boo Bar in Old City,1579339311
-29.36025925,-50.82895517,lodging,AIRBNB,1583437839
-29.36186757,-50.82883716,shopping,MAKEGRAMADO,1583436553
-29.35900624,-50.82912683,lodging,Hospedagem - PET,1583438209
-29.35801504,-50.82916975,transport,TRANSFER - MOTORISTA,1583438443
-29.36376573,-50.80989003,default,Consultoria - criptomoedas,1583438737
-29.36212003,-50.82190096,sports,Personal - Crossfit,1583439195
39.4570256,-0.356862545,lodging,Apt. for rent,1583440791
19.14958212,-96.16545975,atm,Designinnweb,1583520702
46.04794839,14.51699495,cafe,Maestral caffe,1583697744
38.9840487,-78.18276644,atm,Bitcoin ATM ,1583550727
-41.11259812,173.0099487,transport,Abel Tasman Tours,1583565900
46.0731227,14.48730826,shopping,Zlato center,1583696346
45.90916691,15.29316187,default,Elektro team servis Peter Čelesnik,1583696583
46.06293227,14.85619247,default,Kolesarski servis Vidic,1583697033
46.05455296,14.565956,cafe,Sombrero bar,1583697240
46.05476144,14.56464708,cafe,Coco Cubana Caffe,1583697338
46.34443914,15.9939909,shopping,Kmetijska trgovina Cirkulane,1583698159
46.40839251,16.15782022,shopping,Kmetijska trgovina Kosec,1583698359
43.43746456,-79.74045396,default,Pest Lab,1584509898
46.40837032,16.15762711,shopping,Kmetijska trgovina Marof – Ormož,1583698601
46.39614798,16.26793027,shopping,Kmetijska trgovina Središče ob Dravi,1583698838
46.43858886,16.24395132,shopping,"Kmetijska trgovina, Vitan",1583699436
46.42569663,16.0572964,shopping,Kmetijska trgovina Podgorci,1583699627
46.46879805,16.00319624,shopping,Kmetijska trgovina Polenšak,1583699782
46.48513374,15.97062886,shopping,"Kmetijska trgovina, Juršinci",1583699923
46.5152728,15.94122112,shopping,"Kmetijska trgovina, Vitomarci",1583700140
46.52163303,15.8894223,shopping,Kmetijska trgovina Trnovska vas,1583700361
46.05272878,14.5144093,food,Miškova pekarna,1583700752
46.06550052,14.50887859,food,Leskovački dvor,1583700973
46.05263199,14.50522006,cafe,"Hotspot Ljubljana, Center",1583701159
46.07450709,14.51826096,cafe,"Hotspot Ljubljana, Kardeljeva",1583701295
46.08690173,14.48278606,food,Restavracija Dobri Čuk,1583701513
46.15056502,14.61490095,shopping,Sportina,1583701724
46.01933186,14.53534126,shopping,Sportina Outlet,1583702003
46.08797325,14.47700858,shopping,Sportina Man,1583702280
46.23234048,14.36780512,shopping,Sportina Man,1583702463
46.23216979,14.36707556,shopping,Sportina  ,1583702587
46.24321564,14.37603414,shopping,Sportina Outlet,1583702735
46.34376886,14.17608082,shopping,Sportina Outlet,1583702870
46.36706084,14.10978734,default,Sportina  Woman,1583703029
46.06845573,14.54514205,shopping,Parfois,1583703188
46.24184663,15.27668238,shopping,XYZ Studio,1583703423
50.09998467,14.47071075,food,COINMAP.CASH,1583710497
50.08320339,14.42207694,food,COINMAP.CASH,1583710766
51.98108724,5.908455849,default,BMAP.CASH,1583710895
51.98202558,5.913176537,food,BITCOINMAP.CASH,1583710931
51.98244849,5.906116962,food,COINMAP.CASH,1583710975
13.71637253,100.5571747,food,BITCOINMAP.CASH,1583711126
45.5396053,13.73429954,shopping,Sgermobil,1583739933
46.54659794,14.96284246,shopping,Sgermobil,1583740091
46.24183179,15.27803421,shopping,Sgermobil,1583740351
45.82811894,15.18223107,shopping,Sgermobil,1583740695
46.06823614,14.54638124,shopping,Sgermobil,1583740824
46.53990485,15.64028263,shopping,Sgermobil,1583741376
46.02035626,14.53680575,shopping,Sgermobil,1583741542
46.52288063,15.65295339,shopping,Sgermobil,1583741680
46.42371835,15.88645577,shopping,Sgermobil,1583741992
46.2408486,15.27872086,shopping,Parfois,1583742221
46.66822081,16.17909014,shopping,Sportina  ,1583743521
46.55301721,15.65269589,shopping,Sportina  ,1583743706
46.5527184,15.65339863,shopping,Parfois,1583743888
46.55288441,15.65384388,shopping,Superdry,1583743990
46.55317215,15.65399945,shopping,XYZ Premium Fashion Store,1583744079
45.54737866,13.72935355,shopping,Sportina  ,1583744562
45.54447458,13.74069393,shopping,S/O Sportina,1583744710
45.53938737,13.73477161,shopping,Superdry,1583744982
45.53945876,13.73584449,shopping,Sportina  ,1583745078
46.07568676,14.48917508,food,MK Grill,1583745339
46.0897107,14.47749674,food,Fast Food Twins,1583745438
46.03868427,14.47782934,shopping,Sportina  ,1583745639
46.08788024,14.47513103,shopping,Sportina  ,1583745768
45.82773393,15.18238664,shopping,Sportina  ,1583746447
45.82115835,15.1553607,shopping,Sportina  ,1583746224
46.02181647,14.53601182,shopping,Parfois,1583746618
46.02082189,14.53798592,shopping,Marx ,1583746872
46.22307394,14.60804522,default,Štolfa team d.o.o.,1583747726
46.07312642,14.49943721,default,Showroom Autobroker,1583749231
46.05771722,14.54172492,default,Bioguano d.o.o.,1583749639
46.40586985,14.15476799,food,BLACK SWAN burger,1583750637
46.48549571,13.78919899,food,BLACK SWAN burger,1583750856
46.44551991,15.84795535,shopping,Kmetijska trgovina Grajena,1583751147
46.00609487,8.951352239,shopping,Dieci,1583751212
46.51445696,15.71874261,shopping,Kmetijska trgovina Duplek,1583751279
45.32735695,14.44313228,default,Gallery RIart,1583751301
46.51890889,15.78456402,shopping,Kmetijska trgovina Korena,1583751549
46.63713535,15.61289191,shopping,Kmetijska trgovina Kungota,1583751851
46.05470932,14.56860065,default,Strelsko društvo 111,1583752273
46.22962043,15.26131332,shopping,Gold store ,1583750236
45.54619901,13.72597933,default,Gold store ,1583752406
45.32986493,14.43894804,sports,Adriatic Sailing,1583753298
46.06583923,14.55025971,food,Kolosej kokice,1583753653
46.0668516,14.54413354,shopping,Planeta,1583753687
46.06588389,14.54993248,food,Kolosej bomboni,1583753737
46.0654968,14.54990566,cafe,Cafe Cubano	,1583753814
45.3266479,14.44497764,shopping,Optika Vid,1583753921
46.06543725,14.54975545,cafe,Happy End Cafe	,1583754116
46.13086147,14.66859341,default,Fan vit-as,1583754287
46.06610349,14.54951406,cafe,Happy End Cafe	,1583754324
46.06534792,14.54961061,cafe,Vrt Ljubljana,1583754361
46.15292852,14.62433159,default,De-vita,1583754435
46.0522113,14.50280607,cafe,Bar Komuna,1583754573
46.16367079,14.66934443,default,Gas David Gostič s.p.,1583754716
45.34452213,14.38320637,default,"Foto Kurti, Trg rijeckih olimpijaca",1583754682
46.059303,14.53467607,default,F.dvor tiskarna,1583755018
46.00446657,8.953095675,shopping,Imove,1583755020
45.3265951,14.44513321,default,"Foto Kurti, Uzarska",1583755027
46.05932534,14.53476191,default,Spletna tiskarna,1583755095
46.08363497,14.48409498,cafe,Dobra Hiša,1583755300
46.05166403,14.50914681,food,Južna na plac,1583755420
46.00703382,8.955922723,default,FinLantern,1583755490
46.05167519,14.50928092,cafe,Kofe na plac,1583755492
45.58817027,17.21811891,shopping,Dundo i Štefica,1583755499
46.0880551,14.47566748,food,Vozi Miško,1583755618
46.00989901,8.949147463,default,Novaretis - digital investment consulting,1583755705
45.33189386,14.46487427,food,Konoba Tarsa,1583755711
46.02214054,14.53585088,food,Vozi Miško,1583755729
46.00682889,8.955847621,food,Staglio - La pizza al taglio,1583760271
46.25184077,15.16511321,default,Kreativna Fabrika,1583760476
46.34036549,15.17995119,sports,Yogi Moto Center,1583761386
45.32751535,14.44301426,food,Primorska Konoba,1583761499
46.06815426,14.46960568,cafe,Kačji Pastir,1583761501
45.99319385,8.946062922,shopping,Vulkan Lugano,1583761580
45.99341374,8.945960999,food,Ristorante Pizzeria Bar Domino,1583761722
46.13219236,14.5618093,shopping,Cvetličarna Anaeva,1583761751
45.32529391,14.44395304,shopping,Garica CBD Shop,1583761866
46.00979096,8.955375552,shopping,Balmelli Outlet Sport,1583761871
45.3265951,14.44401205,shopping,Vintage Room,1583762176
46.01143028,8.959490061,shopping,Musicdoor HIFI Sagl,1583762285
46.00731699,8.968250155,shopping,Smart Rent,1583762457
46.00721639,8.954436779,shopping,Balmellino,1583762011
45.32710426,14.44370091,shopping,Mare Art,1583762535
46.00563284,8.951502442,shopping,Storica,1583762605
46.24403555,14.34977531,shopping,Anina kuhinja online store	,1583762652
46.00714559,8.954415321,shopping,Balmelli Sport,1583762177
46.00773429,8.953315616,shopping,Ottica Vicari,1583762751
45.98299613,8.956373334,food,Ristorante Capo San Martino,1583762874
46.37247237,15.39068699,shopping,Harmonija.net online store,1583762867
45.35096905,14.38202083,shopping,Mateyaneira,1583762909
46.00656434,8.951824307,shopping,New Trends SA Real Estate Services,1583762976
45.75804725,13.83281171,default,Zvita feltna,1583763078
46.00613585,8.953868151,shopping,Tech technology everyday,1583763212
46.35468856,16.15264893,shopping,Mijo Majhen Hair,1583763276
46.55984516,15.6478411,shopping,Trgovina Luna,1583763289
46.55419031,15.65409601,shopping,Trgovina LUNA,1583763401
46.00455599,8.952113986,cafe,Mauri Concept,1583763409
46.41931409,15.8723259,shopping,LUNA outlet,1583763605
46.00119492,8.949818015,attraction,Debarcadero Lugano Centrale,1583763677
47.37357161,8.53515923,cafe,Manuel's,1583763999
46.45350337,15.67587018,cafe,Kava bar Joca,1583765961
46.48601282,13.78920972,lodging,Hostel Snezinka,1583766086
46.45914653,15.82026958,default,Avto Šajn,1583766374
46.34773116,14.16828096,food,Wrapping,1583766579
46.04339844,14.50512886,food,Restavracija Manna,1583766698
45.70331339,13.86839926,default,DRM,1583766837
46.07328273,14.49714661,default,DRM,1583766946
46.239435,15.25099218,default,DRM,1583767111
45.82693772,15.18537998,cafe,Rdeča Češnja,1583767367
46.63808563,16.16599023,food,EXPANO Food&Drink,1583767541
46.55693112,15.64490676,food,Takos ,1583767774
46.55365541,15.65424085,food,Takos ,1583767624
46.11366854,14.46148932,cafe,Cojzla,1583767996
46.55985622,15.6417954,food,Bubble Waffle,1583768360
46.391649,15.57266951,shopping,GSM aparati,1583768701
46.35221524,15.12780905,shopping,GSM aparati,1583768846
46.5453804,14.96373296,shopping,GSM aparati,1583768998
45.32664036,14.44481671,shopping,Sally Atelier,1583769215
45.31756156,14.46974516,shopping,Sally Atelier TCR,1583769391
45.32245381,14.4613713,shopping,BigBox Outlet,1583769812
45.70301742,16.39404774,default,Maya´s beauty concept store,1583770000
31.38715682,34.74022372,default,Pharmanice,1585536911
5.617822319,-73.81563127,shopping,La esquina del calzado,1583789392
5.61829212,-73.81533623,shopping,El descalzo,1583789572
5.618331438,-73.81522174,default,Bodega el descalzo,1583789623
5.618425586,-73.81513238,shopping,Calza jarvill,1583789761
5.618251596,-73.81507344,shopping,Manufacturas en cuero el corcel,1583789890
5.61666383,-73.8153255,shopping,Innovación deportiva,1583790309
5.617491814,-73.81560441,default,Tienda de tecnología e internet,1583790920
45.32836015,14.44034815,cafe,Klub Bačva,1583828581
45.79405537,16.03400946,shopping,"Kerver, Zagreb - CCO East",1583829331
45.79974031,15.88515759,shopping,Kerver CCO West,1583829784
45.73546672,16.0160923,default,GoodGate,1583831815
43.08233983,25.64112961,lodging,Architect's House Hostel,1583831834
43.09801776,25.66876173,food,Mehana Arbat,1583832033
42.48558824,26.50621712,attraction,Magic of Zain,1583832430
44.95927894,14.408741,default,Kontent,1583832451
42.67252458,23.35495949,default,Priori Estates,1583832742
45.81716553,15.89484036,default,Vizazistica Dajana Pajkic,1583832783
43.084099,25.63880682,cafe,Old Capital's Bar,1583832889
45.38088291,14.37810481,default,Blockadopt,1583833472
42.4834678,26.51007414,cafe,Cafe-Club Cult,1583833622
46.2420581,14.35478032,default,Creina,1583833677
46.16570308,14.57180321,default,Pr'brivcu,1583833959
46.07535928,14.51252103,default,Lompack,1583834135
45.35164009,14.36654449,shopping,Harreither,1583834330
45.77392527,15.96016824,default,Centar za kvalitetu i sigurnost,1583834686
46.06142103,14.54354346,default,Cube Fit food&burgers,1583835269
46.05237138,14.50853527,default,Kalček,1583835570
46.42536014,15.88365555,shopping,Kmetijska trgovina Ptuj - Zadružnik,1583835628
45.32673465,14.4441247,cafe,Stop Caffe & club,1583835646
46.08643294,14.47623074,default,Kalček ,1583835974
45.32731546,14.44758475,food,"Market Smiljana, Titov trg",1583836062
46.02282965,15.89798391,shopping,Uzagorju.com,1583836120
46.02283337,15.89791417,shopping,Incredible-croatia.com,1583836264
46.019235,15.88980854,shopping,"Alati Milić, Zabok",1583836411
46.06350548,14.5448631,default,Radha Govinda,1583836579
45.80603795,15.9691751,shopping,Rijeka Adventures,1583836598
45.80932486,15.88948131,shopping,"Alati Milić, Malešnica",1583836640
43.51728372,16.45911276,shopping,"Alati Milić, Split 2",1583837173
45.32532031,14.44276214,cafe,Phanas Pub,1583837311
45.32689305,14.44225788,shopping,Sex shop Taboo,1583837495
46.16787275,14.56622958,default,Pr'Fartku,1583839569
46.06432063,14.51071858,default,Kavarna Mikavna,1583839803
46.36925957,15.90086997,default,Kmetijska trgovina Videm pri Ptuju,1583839872
46.32917623,15.93614101,shopping,Kmetijska trgovina Leskovec,1583841112
46.3784348,16.05544031,shopping,Kmetijska trgovina Zavrč,1583842946
46.43331329,15.95169246,shopping,Kmetijska trgovina Dornava,1583843322
45.32655362,14.44431245,cafe,Samovar Bar,1583843813
45.80132227,16.00943506,shopping,Emobile Online store,1583843818
45.77990034,15.9939158,sports,Triggerimpulse,1583844578
43.26152646,16.65874422,cafe,Big Blue Caffe Bar,1583844669
45.32814141,14.44025695,shopping,Voyager Travel Agency,1583844759
43.25992866,16.63986683,sports,Big Blue Bike Center no. 1,1583844779
43.25886605,16.64384723,sports,Big Blue Windsurfing Center,1583844480
45.3816591,14.3857491,food,Pizzeria Podroom,1583845059
43.2605381,16.64297819,sports,Big Blue Bike Center no. 2,1583845155
43.26053028,16.64290309,shopping,Big Blue Sport Shop no. 2,1583845227
43.26153428,16.65866375,shopping,Big Blue Sport Shop,1583844983
45.81467548,15.97768307,cafe,Harats Pub,1583845563
45.79658748,15.91678083,default,Mark-Logistika,1583846178
45.79825555,15.91174901,default,Bačani,1583846247
45.64512449,16.4786607,default,Ljilja Paradise Nails,1583846904
43.51331569,16.50322437,shopping,Alo Alo - Smartphone shop & Service,1583847061
43.51894088,16.48344576,shopping,Alo Alo - Mall of Split,1583847219
45.81083176,15.95347345,cafe,Primarius craft pivovara,1583847240
43.71258791,15.91193676,shopping,Alo Alo Tele2 centar,1583847639
46.28064443,14.52616274,default,Terasa Krvavec,1583847644
45.82387241,16.06406093,transport,Taxi,1583847660
43.71256465,15.9117651,shopping,Alo Alo Dalmare,1583847783
46.05405039,14.50722635,default,Čevljarna Kopito,1583847881
45.87114907,15.82737207,food,Chubby okruglice štand,1583847981
43.44239573,16.68269634,shopping,Alo Alo - PC Studenac,1583848080
43.51484458,16.25202477,shopping,Alo Alo Trogir,1583848203
44.03500487,16.19736671,shopping,Alo Alo Knin,1583848379
43.50998546,16.44642591,shopping,Alo Alo,1583848513
45.83700719,16.06978476,shopping,Marmat revolution,1583848399
45.22951577,14.62478757,transport,VIP TAXI,1583848885
45.51639903,18.72511804,default,Altera Vita,1583848828
45.38093566,14.38365161,cafe,Infinity Caffe & Night bar,1583849073
45.48031731,15.55705905,shopping,"KARIĆ Automobili, prodaja",1583849142
46.0558857,14.56377804,default,Stipič Yacht,1583849151
45.48036996,15.55704296,default,"KARIĆ Automobili, servis",1583849211
46.05594154,14.56376195,default,Avtodomi Stipič ,1583849346
45.32891078,14.43952203,default,Klub Mladih Rijeka,1583849364
46.05595643,14.56383705,default,Avtoservis in vulkanizerstvo Stipič,1583849428
45.81176654,15.97324669,food,Muzej čokolade Zagreb,1583849579
45.75483592,16.08359277,shopping,MPS Velika Gorica,1583849657
45.80926129,15.97239375,shopping,Octopus Piercing,1583849730
46.00054281,14.02257264,default,Velo center,1583849974
46.51317594,15.08326828,default,Velo center,1583850125
45.54268998,13.73182654,default,Kalček ,1583848039
45.5427576,13.73175144,default,Velocenter,1583850311
46.10481714,14.5369184,sports,Velocenter,1583850446
45.56493523,14.24639225,sports,Velocenter ,1583851411
46.16442501,14.30693507,default,Bokal sport,1583852106
46.16357419,14.56955552,default,Speak up,1583852549
46.22222773,14.6075356,shopping,Zlata ptička,1583852738
45.80935851,15.95414937,shopping,MOTO MONDO - Prodaja,1583852901
45.80933234,15.95425665,default,MOTO MONDO - Servis,1583853003
45.74123251,16.06630325,transport,Nirik Zagreb Airport Transfers,1583853087
45.81959192,15.97627759,default,Salon Teuta,1583853201
45.32352876,14.4671917,shopping,Orijent 1919 Fan shop,1583853323
45.34765143,14.31912303,cafe,Kaokakao,1583853658
45.32790381,14.44203794,cafe,Caffe Bar Iskra,1583853488
45.33090957,14.43025231,cafe,Cafe 2020,1583853888
45.32608217,14.44178581,shopping,4 elements,1583854000
45.51061758,16.05323553,shopping,MPS Hotnja,1583854452
45.67471753,15.57881176,shopping,MPS Hotnja,1583853634
45.56280199,16.20813847,shopping,MPS Hotnja,1583853886
45.76866802,15.80327511,shopping,MPS Hotnja,1583854573
45.69198322,15.74197054,shopping,MPS Hotnja,1583854987
45.81567002,15.8757484,shopping,MPS Hotnja,1583854668
45.63170068,18.69955659,shopping,Unikatni nakit Vranješ,1583854306
45.50767025,16.37249351,transport,FORTY-TWO TAXI,1583855379
46.15095523,14.44610953,food,Restavracija Evergreen,1583855389
45.32725512,14.44410324,cafe,Chocoland,1583855511
45.36158412,14.39210057,default,Cip Cop Igraonica,1583855529
45.32747009,14.44443047,cafe,Slon Slastičarna,1583855603
45.32715706,14.44373846,shopping,Supermajice.hr,1583855689
45.32774918,14.43803608,lodging,Hotel Molo Longo,1583855768
45.32749649,14.44449484,default,My Travel,1583855787
46.0882188,14.4760859,food,Restravracija in pizzerija Angel,1583855815
46.04906534,14.50895905,cafe,Grajska kavarna,1583855695
46.04890897,14.50886786,food,Restavracija Strelec,1583855491
46.05069605,14.50614274,cafe,Lolita,1583855611
46.05467954,14.49296236,cafe,Caffe Bienale,1583856002
46.05871858,14.50184584,food,Pizzeria Kampus,1583856294
46.05335795,14.5052737,cafe,Šport Caffe,1583856324
46.04911002,14.50885177,nightlife,Vinoteka Strelec,1583858828
46.10814588,14.46111917,food,Gostilnica in pizzerija Kaval,1583859114
46.1082091,14.46141422,cafe,Kavarnica Kaval Club,1583859217
46.10825001,14.46083486,nightlife,Biljardnica Kaval,1583859315
46.09829669,14.53555584,food,Element Restavracija,1583859451
46.04014027,14.51131403,cafe,Špica Caffe,1583859581
46.05058063,14.56344008,cafe,Kavarna Mao,1583859711
45.92069557,14.22888279,default,Menard RA,1583860094
46.23258539,14.3684113,shopping,A1,1583860392
46.24313402,14.3784374,shopping,A1,1583860541
46.01986082,14.53709006,shopping,A1,1583860871
46.02199154,14.53542709,shopping,A1,1583861073
46.10452703,14.53553975,shopping,A1,1583861272
46.23702326,14.40873563,default,Estetika Fabjan,1583861741
46.55445591,15.65368295,shopping,GSM aparati,1583862059
46.54645405,15.6192112,shopping,GSM aparati,1583861921
46.41827491,15.87903678,shopping,GSM aparati,1583862293
47.17840288,8.517971635,lodging,Hotel Zugertor,1583870275
46.17718947,14.61071134,grocery,Žito trgovina,1583912622
46.16443616,14.3070209,sports,Velocenter,1583912722
45.5462704,13.72585058,grocery,Žito kruharna Koper,1583912971
45.70890269,13.8732326,grocery,Žito trgovina Sežana,1583913333
46.05302661,14.50629294,food,Okrepčevalnica Ajda,1583913347
46.05346963,14.50457633,food,Fast Food Ajda 2,1583913613
46.55417924,15.64619958,grocery,Žito kruharna Center Maribor,1583913800
46.0574492,14.50969398,food,Fast food Ajda,1583913989
46.55400955,15.65371513,grocery,Žito trgovina Europark Maribor,1583914104
45.93324411,-1.23581171,food,sarl courdavault alain,1583914156
45.82060506,15.18218279,grocery,Žito kiosk Ločna Novo mesto,1583914319
46.56092589,15.6600666,grocery,Žito trgovina Intes Maribor,1583914433
46.53634397,15.65701962,grocery,Žito trgovina Tezno Maribor,1583914691
46.50839495,15.69534302,grocery,Žito trgovina Miklavž Maribor,1583915376
45.65499808,15.60665309,shopping,MPS Hotnja,1583918410
45.58617306,16.04735076,shopping,MPS Hotnja,1583917517
45.68438727,15.6997633,shopping,MPS Hotnja,1583854231
45.80626232,15.93934894,shopping,MPS Hotnja,1583855145
45.71546903,15.59299529,shopping,MPS Hotnja,1583918832
46.05372651,14.50670063,cafe,M Caffe,1583919318
46.34022106,15.42704165,grocery,Žito trgovina,1583920096
46.35692111,14.16101754,grocery,Žito trgovina Hlebček,1583920105
46.35692851,14.16092634,cafe,Žito bar Hlebček,1583919924
45.95426765,15.49974024,grocery,Žito kiosk,1583919727
45.81656359,15.15407324,grocery,Žito trgovina Sezam,1583914255
45.7932138,14.36310053,grocery,Žito delikatesa,1583913250
45.77361845,14.21243548,grocery,Žito trgovina,1583913147
45.91780336,14.22931194,grocery,Žito trgovina,1583913077
45.96304997,14.2865181,grocery,Žito trgovina Kruhek,1583912915
45.96621201,14.2977941,grocery,Žito trgovina Jazon,1583912818
46.09928244,14.54027653,grocery,Žito center,1583912738
46.06793467,14.54184294,food,Ajda burgers and more,1583922642
46.24189115,15.27740121,shopping,Optimist Online shop,1583922444
46.06973975,14.54836071,grocery,Žito Diskont,1583922841
45.68247594,14.19746876,sports,Velocenter,1583913024
46.23993588,15.27733684,sports,Velocenter,1583913157
46.65390649,16.1981231,sports,Velocenter,1583914245
46.41953967,15.87459505,sports,Velocenter ,1583919540
46.05375257,14.5027256,shopping,Omara Koncept,1583922974
46.13823672,14.59794402,default,TaRICH frizerski studio,1583923010
46.24367197,15.27864575,shopping,Trgovina Optimist,1583923098
46.06796817,14.54182148,shopping,Omara,1583923099
45.88712556,13.90814424,sports,Velocenter,1583912909
46.04639207,14.50817585,shopping,Esenca online store,1583923494
46.04740108,14.50641632,grocery,Pekarna Osem,1583923546
46.06720146,14.54252958,shopping,Svet Križarjenj,1583931729
46.06583178,14.58529472,shopping,Vse za otroke online store,1583931962
45.70329091,13.8683188,shopping,Azure Film,1583932315
46.04762075,14.4999361,default,SalON/OFF,1583932548
45.70972306,13.85857701,shopping,PIT STOP  vulkanizerstvo - hitri servis,1583932595
46.04763936,14.49993074,default,SalON/OFF,1583932609
45.70564733,13.86315286,shopping,SpinaliS trgovina,1583932789
46.56046114,15.65024972,cafe,Moja Kavarna,1583932818
45.70604068,13.8673532,shopping,Parketarstvo Valenčič,1583933013
45.70793621,13.8703841,default,Valles parketi,1583932989
45.70595826,13.86734247,food,Apetit okrepčevalnica - catering,1583933134
46.04731172,14.54543173,default,Center užitka SpaLaLa,1583933421
45.54406131,13.74118745,shopping,Sneakers Park,1583933627
46.06805005,14.54557657,food,Burger King Citypark,1583933721
45.57962909,13.7371105,shopping,Studio INN frizerski salon,1583933726
46.23762806,15.25851846,cafe,LIFE caffe,1583933831
46.05440033,14.500494,food,Zvezda Narodna galerija,1583933945
46.53289726,15.66562951,cafe,LIFE caffe,1583933951
45.92681161,14.7237289,cafe,Breza Caffe,1583934087
45.52744152,13.66529703,default,MWS nega in vzdrževanje plovil,1583934168
46.01163519,8.958594203,food,Piadineria Romagna Mia,1583934289
45.82735638,15.18409789,shopping,Omara,1583934712
46.55877915,15.65061986,grocery,Žito trgovina City,1583934968
46.53870931,15.63632905,grocery,Žito trgovina,1583935156
46.22917511,15.26246667,grocery,Žito trgovina,1583935366
46.55921441,15.64855456,grocery,Žito trgovina Štukelj,1583935611
46.14129582,14.59841609,default,Bioenergija Draženko Drinić,1583940061
5.611287771,-73.8209635,transport,Electripeña,1583961797
5.616567734,-73.81584585,shopping,Eliteshop,1583965907
46.35015283,15.73363423,shopping,Kmetijska trgovina Majšperk,1584005672
47.05959076,7.623669505,default,Archventure GmbH,1584007011
46.0679049,14.54203069,shopping,Katja Pro Boutique,1584027446
46.02052389,14.53754067,cafe,Moj Lokal,1584091194
51.74915237,-0.3260493279,shopping,Herts Hemp,1584101344
39.74502999,-8.812338071,shopping,MRCosmética,1584193024
-12.07737019,-77.09368765,attraction,Lyder - Agencia Digital,1584104446
41.16339416,-8.58415246,default,Clinica dos Bits,1584143157
2.943356993,-75.27093887,shopping,Emilianos Store,1584144418
53.19112825,50.116826,default,Крипто Маркет,1584295653
55.59423119,37.6033473,default,Крипто Маркет,1584295932
55.74727839,37.53958583,default,Крипто Маркет,1584296051
55.76254718,37.59209543,default,Крипто Маркет,1584296157
55.80641543,37.57103741,default,Крипто Маркет,1584296230
55.7588377,37.62524486,default,Крипто Маркет,1584296283
55.76372877,37.65419662,default,Крипто Маркет,1584296359
57.01153365,40.96774936,default,Крипто Маркет,1584296428
56.98115697,40.99367023,shopping,Крипто Маркет,1584296610
56.98257175,40.982126,transport,Крипто Маркет,1584296650
56.99750549,40.96049666,lodging,Крипто Маркет,1584296742
56.32321828,44.03049409,shopping,Крипто Маркет,1584301722
56.32567523,44.01062965,lodging,Крипто Маркет,1584301784
56.32766208,43.98639858,transport,Крипто Маркет,1584301871
35.20572427,26.10548973,food,myloi.shop,1584522343
54.18721695,45.16829789,shopping,Крипто Маркет,1584301955
54.16720929,45.12969553,transport,Крипто Маркет,1584302013
56.64022393,47.89441466,shopping,Крипто Маркет,1584302122
56.63228353,47.92889982,lodging,Крипто Маркет,1584302178
55.72629746,48.72047603,shopping,Крипто Маркет,1584302243
55.82033206,49.1009903,shopping,Крипто Маркет,1584302368
55.79205653,49.10283297,shopping,Крипто Маркет,1584303470
51.5341569,46.02623463,shopping,Крипто Маркет,1584303586
51.54591471,46.01842403,lodging,Крипто Маркет,1584303626
48.70601515,44.50937033,shopping,Крипто Маркет,1584303682
48.7349967,44.48904991,lodging,Крипто Маркет,1584303747
48.71040469,44.43802357,transport,Крипто Маркет,1584303793
43.58567562,39.72530186,shopping,Крипто Маркет,1584303884
43.58431561,39.71588194,lodging,Крипто Маркет,1584303932
43.57342669,39.74057436,transport,Крипто Маркет,1584303999
43.67961248,40.20665109,shopping,Крипто Маркет,1584304069
45.05882183,39.01720136,shopping,Крипто Маркет,1584304159
45.06139661,39.01865244,transport,Крипто Маркет,1584304213
44.73788587,37.77788401,shopping,Крипто Маркет,1584304296
44.88476243,37.33109772,shopping,Крипто Маркет,1584304366
44.89310466,37.32294917,transport,Крипто Маркет,1584304412
53.3562379,58.97332191,shopping,Крипто Маркет,1584304579
53.36203896,58.95042658,lodging,Крипто Маркет,1584304613
54.7407095,55.98688066,shopping,Крипто Маркет,1584304696
54.73526348,55.97050309,lodging,Крипто Маркет,1584304735
54.74453846,55.95269322,transport,Крипто Маркет,1584304793
40.22910761,-76.83230639,atm,Bitcoin ATM,1584395002
46.0124064,8.956491351,default,Miss Spettino,1584434530
45.51292572,13.59437943,food,Restavracija Bungalow,1584441245
45.51370009,13.59339774,cafe,Cacao ,1584441397
46.0620166,14.54840362,cafe,Cacao,1584444783
46.05143693,14.50662017,cafe,Cacao ,1584445254
46.05482473,14.50429201,cafe,Cacao ,1584445467
38.98868128,-77.09782362,shopping,JS Audio,1584447949
41.44603579,2.214807272,shopping,CONTROLIP TELEMATIC SOLUTIONS SL,1584538132
4.154579568,-74.72372373,default,Bitcoins ,1584570698
49.02556853,17.64586151,shopping,FantasyGROUP,1584623595
50.35092717,14.47836041,default,Prototech.cz,1584644541
33.46398642,-88.80925477,cafe,Strange Brew Coffee,1584650382
-22.87148963,-47.04136133,sports,ROBERTO MORAES SILVA,1584671409
-38.54986036,-58.74295235,default,Estudio Juridico Wagner,1584761089
-37.99852155,-57.54934788,default,Estudio Juridico Wagner,1584761289
37.78998222,14.61883051,food,AZ. Agricola biologica di Inzerilli Carmelo ,1584839508
49.11542795,9.736161232,food,Alt Hall,1584869776
49.14307455,9.220656753,atm,Tabak Sasse,1584869950
46.70973594,-116.9604492,default,Steve Smallwood Illustrations,1584901273
46.4224241,15.87159634,shopping,Swat online store,1584948915
46.24472931,13.58116686,default,Nutrishop.si online store,1584949641
46.06381442,14.54569459,grocery,Kalček.si online store,1584954402
45.33567623,14.40547943,default,Izdavački centar Sušak,1585052822
45.33569131,14.40562963,default,Tiskara Sušak,1585052891
45.34869574,14.42903996,default,Inćun,1585053075
45.32421522,14.44132447,default,Gulet Adonis,1585053853
45.34588698,14.36618507,cafe,Premier bar,1585054183
45.32737581,14.44402814,default,Master's Barber shop,1585054443
45.15802906,14.72145438,default,Mini Eko,1585054771
45.15806689,14.72162604,default,Eko Motiv,1585054861
45.37025262,14.34104204,default,Magic Project,1585055075
46.06596577,14.51783717,shopping,Huda Čupca,1585060619
46.38587674,15.55965006,shopping,K&M,1585061250
46.045074,14.50494647,cafe,Mala Pražarna,1585061378
46.06584295,14.54953551,shopping,Garderoba online store,1585130713
56.3246996,44.00539398,atm,Крипто Маркет,1585140241
55.46387523,43.19436908,atm,Крипто Маркет,1585140317
55.46362889,43.1889993,shopping,Крипто Маркет,1585140392
56.99232173,40.97973347,atm,Крипто Маркет,1585140444
55.68077839,37.58199692,atm,Крипто Маркет,1585140493
55.75281545,37.63589859,atm,Крипто Маркет,1585140524
55.75011948,37.56148338,shopping,Крипто Маркет,1585140581
55.74691607,37.53628135,shopping,Крипто Маркет,1585140675
55.42710183,37.54451036,atm,Крипто Маркет,1585140743
55.43135111,37.5570631,transport,Крипто Маркет,1585140802
55.41783461,37.54835129,shopping,Крипто Маркет,1585140865
43.58564453,39.72304344,atm,Крипто Маркет,1585140976
43.42923725,39.92611885,shopping,Крипто Маркет,1585141100
55.79163129,49.11884308,atm,Крипто Маркет,1585141291
55.81859615,49.08373833,atm,Крипто Маркет,1585141330
55.76744835,49.11549568,shopping,Крипто Маркет,1585141385
55.83093875,49.15514946,atm,Крипто Маркет,1585141438
54.90272114,49.93985653,shopping,Крипто Маркет,1585205328
55.36652729,50.62980652,shopping,Крипто Маркет,1585205417
54.88766665,52.28668213,shopping,Крипто Маркет,1585205478
55.73493945,52.3956871,shopping,Крипто Маркет,1585205527
55.63594208,51.80980682,shopping,Крипто Маркет,1585205572
53.62692797,55.93345642,shopping,Крипто Маркет,1585205653
56.09162421,54.24937248,shopping,Крипто Маркет,1585205701
56.84071028,53.22584152,shopping,Крипто Маркет,1585205761
57.99809232,56.26407623,shopping,Крипто Маркет,1585205869
64.54969422,40.53440094,shopping,Крипто Маркет,1585205961
64.53678182,40.33475876,shopping,Крипто Маркет,1585206104
64.55729124,39.84054565,shopping,Крипто Маркет,1585206148
59.89031477,30.28038025,shopping,Крипто Маркет,1585206247
60.00568044,30.25291443,atm,Крипто Маркет,1585206297
46.06487894,14.55214262,cafe,Bar Na Vrtu,1589524024
59.83291257,30.14511108,atm,Крипто Маркет,1585206349
59.97631836,30.37685394,transport,Крипто Маркет,1585206388
58.52498829,31.2610817,shopping,Крипто Маркет,1585206432
58.60766303,49.6732235,shopping,Крипто Маркет,1585206537
58.54550732,50.04341125,shopping,Крипто Маркет,1585206574
66.08386715,76.65959358,shopping,Крипто Маркет,1585206708
66.08264927,76.68534279,atm,Крипто Маркет,1585206755
65.9108423,78.22184086,shopping,Крипто Маркет,1585206806
51.82315311,107.6023293,shopping,Крипто Маркет,1585207666
51.74084876,107.285614,shopping,Крипто Маркет,1585207703
52.27971148,104.3024826,shopping,Крипто Маркет,1585207786
52.30637946,104.3117523,atm,Крипто Маркет,1585207852
52.31267664,104.2482376,atm,Крипто Маркет,1585207886
52.52055583,103.8714409,shopping,Крипто Маркет,1585208181
52.55261088,103.8838863,atm,Крипто Маркет,1585208230
56.29139456,101.68396,shopping,Крипто Маркет,1585208769
56.13416785,101.575985,shopping,Крипто Маркет,1585208798
55.93112543,98.00319672,shopping,Крипто Маркет,1585208850
53.02295395,158.6466122,shopping,Крипто Маркет,1585241904
53.03481356,158.644681,transport,Крипто Маркет,1585241931
53.01786519,158.650834,atm,Крипто Маркет,1585241973
59.56748419,150.7945633,shopping,Крипто Маркет,1585242052
59.5585271,150.7965159,transport,Крипто Маркет,1585242083
59.54908915,150.8273077,atm,Крипто Маркет,1585242118
43.12310115,131.8804407,shopping,Крипто Маркет,1585242257
43.10944265,131.878252,transport,Крипто Маркет,1585242284
43.12642134,131.8895388,atm,Крипто Маркет,1585242330
43.17326056,131.9203949,atm,Крипто Маркет,1585242367
43.35420505,132.188015,shopping,Крипто Маркет,1585242396
43.79117169,131.9543839,shopping,Крипто Маркет,1585242426
45.46840782,133.3939576,shopping,Крипто Маркет,1585242481
42.82247665,132.8832006,shopping,Крипто Маркет,1585242547
50.5723356,136.9928169,shopping,Крипто Маркет,1585242842
50.55445248,136.9528198,transport,Крипто Маркет,1585242878
50.61145851,137.0552158,lodging,Крипто Маркет,1585242943
56.02198872,92.83979416,shopping,Крипто Маркет,1585243130
56.02601787,92.88579941,atm,Крипто Маркет,1585243179
56.0014527,92.81404495,transport,Крипто Маркет,1585243239
55.99463694,92.9649353,shopping,Крипто Маркет,1585243268
53.69487703,91.69309616,shopping,Крипто Маркет,1585243318
53.72271667,91.43890858,shopping,Крипто Маркет,1585243356
53.70740207,91.43358707,default,Крипто Маркет,1585243389
55.05256343,82.90961266,atm,Крипто Маркет,1585243743
55.0490725,82.97132492,shopping,Крипто Маркет,1585243768
54.95514577,82.89459229,transport,Крипто Маркет,1585243873
53.35403508,83.75976563,shopping,Крипто Маркет,1585243950
56.48448698,84.9958992,shopping,Крипто Маркет,1585244040
56.43602092,84.93667603,transport,Крипто Маркет,1585244070
55.35023152,86.05882645,shopping,Крипто Маркет,1585244122
55.39675914,86.10895157,transport,Крипто Маркет,1585244156
53.75206043,87.15162277,shopping,Крипто Маркет,1585244204
54.99945362,73.36620569,shopping,Крипто Маркет,1585244300
54.98056904,73.39244843,transport,Крипто Маркет,1585244334
57.10511384,65.69343567,shopping,Крипто Маркет,1585244402
46.01236169,15.29007196,cafe,Bar Todi,1589527417
58.20150415,68.25046062,shopping,Крипто Маркет,1585244452
55.16389207,61.41507626,atm,Крипто Маркет,1585244499
55.15675769,61.38782501,shopping,Крипто Маркет,1585244539
55.19626267,61.35048866,atm,Крипто Маркет,1585244579
55.7701039,60.70684433,shopping,Крипто Маркет,1585244643
56.81807513,60.55123329,shopping,Крипто Маркет,1585244691
56.81290752,60.61182976,atm,Крипто Маркет,1585244748
56.76533202,60.62427521,shopping,Крипто Маркет,1585244776
57.9177883,59.9656105,shopping,Крипто Маркет,1585244823
57.90677717,59.99230385,shopping,Крипто Маркет,1585244860
49.19078093,16.62116647,default,Adam Kolek - Specialista na E-mail Marketing,1585314900
49.19081248,16.62127912,default,ko-bot | Vytváříme chatboty,1585315088
49.12477392,18.41250658,default,"DIGITAL STEEL, s.r.o.",1585428287
29.80147519,-95.56697845,shopping,Dollmotions,1585468375
-33.03724257,-61.16261601,default,Gabriel Casafu,1585586442
45.92667355,13.64285231,shopping,Horti,1585666555
45.91913193,14.23077643,shopping,Doget online store,1585212178
46.04430325,14.47591424,default,Hram lepote,1585918544
46.04414314,14.4758606,default,Australian Gold,1585918803
41.33094373,-81.46052241,shopping,anthonymrugacz.com,1585957358
20.55148336,-102.5103217,shopping,Mony's Boutique,1585997690
11.6855229,-84.45568085,default,Americantel,1585693061
37.26703897,-107.0110631,shopping,Bookends,1585715043
46.35682484,14.16479945,default,"Meganet369, storitveni in svetovalni center",1585739243
40.0026678,-83.00059319,default,Block 11 Crypto,1585754196
47.49450881,8.896254301,shopping,GOLDENGREEN GmbH,1585777763
66.08433689,76.67942047,default,WB Change,1585852829
55.72529751,37.57668614,default,WB Change,1585852981
4.962891093,-73.91707778,shopping,Jewelry's World A&S,1585873604
4.75809799,-74.02896078,shopping,INNOVA,1585888224
40.82024807,29.29216862,default,cengiz makina tesis degerleme,1586016378
-34.67437634,-58.67692896,shopping,JM repuestos Ituzaingo,1586166194
48.97747775,14.47414935,default,Řezníček & Co.,1586193662
46.05029024,14.48521614,default,Domas-Kont,1586342824
39.97674191,32.74522305,grocery,eyüp market,1586364745
41.89953003,12.49145508,default,National Office,1586386525
64.1126212,-21.8485558,transport,Magma Motors,1586506891
53.54404975,-2.426095605,shopping,Red Light Man,1586712928
4.460111462,-75.15438616,lodging,VILLA LEONES ,1586734937
41.52612196,-70.67358971,default,JSK Tree Care,1586802823
9.95094987,-84.05302763,default,Buy RE CR,1586851159
46.05223736,14.50834215,shopping,Saloon online store,1586861662
-34.62621603,-58.47172201,default,TETRAKIS 3D,1588091494
47.40852636,8.545126319,default,LAWGATE,1586861816
43.66926853,-79.32712555,default,EBMforbettertreatment,1586999661
37.95240831,23.69722545,default,Delta Strom,1587013350
46.10636438,14.52763259,grocery,Sadjevpisarni.si online store,1587031314
45.84891701,14.69520628,default,SVETANGELOV online store	,1587042257
42.52189751,27.43670762,food,Pantastic Pancakes,1587116758
42.67844839,23.32014441,food,American Pancakes Story,1587117266
43.07226184,25.60717285,food,Bar&Grill Kolata,1587118761
42.48416407,26.51066422,shopping,Slim Computers,1587119084
42.82446753,23.35563004,shopping,Green Mobile,1587119515
46.06563452,14.54306602,shopping,Nogavice.net online store,1587131526
41.37458654,2.142677307,nightlife,Harem Barcellona,1587209243
37.65999143,44.98622417,default,اروم نت,1587397884
37.55045095,45.06689429,default,اروم نت,1587398263
46.09484832,15.57314157,default,Puffi online store,1587466169
45.84861808,15.81110716,shopping,Oprema za kupaonice online store,1587630611
45.33232754,16.97102308,shopping,Apotekos online store,1587631573
35.72249736,139.763158,shopping,tokibakari,1587545239
39.57350518,2.662677169,shopping,MUNDO-DIGITAL,1587551953
50.09988832,14.43670034,shopping,M0ST Napoje / Beverages,1587634140
42.7042155,23.32338452,food,Fast Food Oops,1587635476
45.81330703,15.9711653,shopping,Zadruga za etično financiranje,1587745863
48.20578859,16.37564242,default,"Anita Posch, Bitcoin & Co.",1587883582
43.83415917,-79.51638758,default,Best Dance Classes for Adults & Kids in Vaughan,1588003449
6.078467611,-75.42436123,shopping,Salon de Belleza AMY Barber Shop,1588016916
43.64289232,10.79687834,food,Inserrata Organic Winery,1588537612
4.669692036,-74.05342519,food,ENTRIGADAS,1588106816
4.637900366,-74.06940043,food,ENTRIGADAS,1588107468
46.11855107,14.54931557,shopping,Anni online store,1588142825
46.07306316,14.49943185,default,KN Shop online store,1588244548
9.938110188,-84.11002994,default,Costa Rican Vacations,1588259964
37.49883142,-77.62802124,default,International Plumbing,1588604462
43.20236826,27.91633487,shopping,Party Land,1588605623
10.07945615,-84.47318494,atm,Exchange $₡₿,1588305752
30.21432476,75.09396136,shopping,DARSHAN KUMAR NARESH KUMAR,1588354554
30.21446846,75.09397209,shopping,DKNK,1588354694
30.2302933,75.09578526,shopping,DARSHAN KUMAR NARESH KUMAR,1588355019
30.23017279,75.09557068,shopping,DKNK,1588355059
30.21989666,75.08923531,shopping,DARSHAN KUMAR NARESH KUMAR,1588355223
30.22021186,75.08923531,shopping,DKNK,1588355256
30.21424595,75.09402573,default,MAHESHWARI,1588355565
48.83141535,16.40217483,default,POLI-CARS,1588681943
49.56981129,0.9446418285,default,Pavilly Lavage,1588687656
37.19504001,40.59109211,shopping,mardinbilişim,1588368319
10.39812736,-75.52139282,grocery,Detodito,1588724300
10.39414899,-75.51916122,default,Ednas Ship Chandler,1588728055
40.28531632,-74.56402123,atm,Bitcoin ATM,1588860184
45.33134704,14.44609344,default,International company marine & hotel resort,1588862660
1.343288132,103.7760079,default,Economics Tuition in Bukit Timah Singapore | JC Economics Education Centre Pte Ltd,1588863648
46.1929255,7.338142991,nightlife,Bar Le Barlouca,1588906315
44.49236502,11.32566512,default,Ambulatorio Veterinario Guidotti,1588951430
28.47347295,-81.36572778,food,Grassdogs LLC,1588964116
4.716115121,-74.10905421,sports,La Tienda del Pana,1589347616
43.08208516,25.63211739,food,Doner and Burger Express,1589369964
51.04150858,2.37452209,default,Céline Gasperini Psychologue,1589030246
36.84014619,-2.464247346,food,Milestone Hamburgueseria,1589127190
46.04649632,14.51744556,default,Iccounting Slovenia,1589200687
46.05586708,14.50944722,default,ID Factory hair group Ladies only,1589201244
46.05580008,14.50944185,default,ID Factory hair group Unisex - Barber,1589201120
46.07869352,14.48410034,cafe,Zvezda,1589201643
-31.32838273,-64.26624835,food,Los Terneros,1589228489
-22.42955507,-46.84009194,default,Nectho,1589254362
22.30095892,114.1742027,atm,Easy Coin HK,1589272870
45.95591234,14.73734379,default,Računalniški mojster,1589275605
41.11216566,1.142283082,food,La Pepa Chuches,1589285311
46.24431751,15.2592963,shopping,InfinitiCUP online store,1589296453
46.00223084,8.949587345,shopping,Orologeria Somazzi,1589296794
43.89910614,-78.91815305,default,Sheridan Home Improvements,1589304309
42.86100801,25.32480597,shopping,Vesta V i S,1589370739
42.15843287,24.73887205,shopping,Vesta V i S,1589370329
42.4799982,26.51373267,default,SDK,1589371077
46.25296472,14.45582449,transport,Avtoservis Selan,1589371328
46.0197975,14.54229891,cafe,Coffee shop P,1589527617
36.7173523,-4.421144128,default,PM Abogados,1589653233
46.07525136,6.564878225,shopping,CITADEL Vault,1589811913
20.02083498,-75.80420494,lodging,Casa Piñol,1589808399